id,name,latitude,longitude,owner's name
1,North Terry,30.2234,-97.7697,David Lopez
2,Jonesview,37.7825,-122.393,Brandon Glass
3,West Richardmouth,50.7668,4.3081,Justin Stephens
4,North Deniseside,59.7451,10.2135,Alisha Patrick
5,Daniel Austin,50.2606,4.9122,Penny Young
6,North Pattyshire,50.3093,4.7646,Chase Mcdaniel
7,Port Krystalfort,50.1999,5.2277,Javier Sanchez
8,North Kathleenside,41.2225,-77.0369,Kristina Osborne
9,Cardenasstad,41.4392,-87.1078,Jessica Kim
10,Cookton,30.5049,-89.944,William Romero
11,New Ian,52.3277,1.6802,James Rose
12,Alexisside,50.9699,4.1892,Joseph Chambers
13,Stacey Sexton,49.7652,-97.1539,Erin Hickman
14,Bradchester,41.2603,-96.0903,Maria Higgins
15,Johnsonport,47.8781,10.6161,Michael Best
16,Hayesport,45.5484,-122.619,Ashley Williams
17,Duncanberg,58.3573,-134.49,Stephanie Howard
18,Davisland,43.1257,-89.3253,Amy Gibson
19,Amyshire,32.892,-117.144,Carl Pennington
20,West Williamborough,21.3069,-157.858,Katrina Young
21,Carlostown,43.7028,-70.3166,Jonathan Kidd
22,East John,43.7028,-70.3166,Mr. Nicholas Hoover
23,Lake Annville,40.6016,-75.474,Morgan Smith
24,Davismouth,47.7487,10.5694,Scott Matthews
25,New Cody,47.7237,10.3141,Terri Smith
26,East Teresa,38.0501,-84.5088,Alexandra Hunt
27,North Ashley,32.8355,-116.765,Donna Walker
28,West Gregorymouth,48.3457,8.4031,Julie Baker
29,East Robertland,50.919,3.2632,Andre Harris
30,Beardfurt,41.7605,-88.309,Julie Jackson
31,North Seth,38.8966,-121.077,Curtis Rogers
32,Meyerschester,39.1551,-94.482,Joshua Allen
33,Port Connie,42.3763,-72.5199,Carrie Vargas
34,Jimmyville,38.535,-105.992,Sharon Bailey
35,Masonburgh,52.3738,4.8909,Daniel Hansen
36,Latoyaberg,48.5193,-122.613,Mark Christensen
37,Ashleyfort,37.7635,-122.401,Eric Beck
38,Ruizmouth,47.9775,11.185,Kathleen Floyd
39,Lake Sarah,39.0014,-123.356,Christine Fuentes
40,North Kristenborough,44.3516,-69.1401,Glenn Anderson
41,Port Randy,43.0785,-89.382,Jane Kramer
42,Michaelmouth,38.5983,-90.209,Heidi Williams
43,East Meganberg,40.2659,-76.8753,Sharon Moore
44,Michael Garcia,44.2619,-88.4154,Travis Freeman
45,Jeffersonhaven,42.322,-85.1851,David Richards
46,Arroyobury,53.3433,-6.2846,Daniel Gilbert
47,Lyonsfort,35.6221,-82.5536,Robin Ward
48,Denise Schwartz DDS,33.818,-84.4353,Travis Russell
49,Campbellchester,44.3996,-68.334,James Wells
50,Lake Kayla,42.3372,-83.0186,Kimberly Zhang
51,Lake Juanmouth,44.2896,-94.449,Arthur Cantu
52,Williamsfurt,44.2896,-94.449,Robert Villa
53,Port Jeannestad,38.5702,-90.8802,Robert Garza
54,Turnerburgh,-37.968,144.525,Felicia Evans
55,Danielmouth,40.0166,-105.219,Alexis Gray
56,Barryland,35.6197,-78.8085,Justin Whitehead
58,West Jasmine,41.6124,-86.7268,Leslie Hess
59,New Ryan,39.5765,-106.094,Elizabeth Welch
60,Lake Laura,44.0486,-91.6774,Joseph Choi
61,Leah Stanley,44.4214,-84.1167,Becky Rhodes
62,Tommybury,32.7668,-117.195,Adrian Murray
63,Lauraview,39.42,-76.54,Timothy Rice
64,East Colleenville,49.8901,10.9067,Ashley Gray
65,Lake Alexiston,44.1636,-93.9994,Donald Wang
66,Andrewmouth,44.3875,-68.2046,Emily Mckay
67,West Nicole,38.9169,-94.3943,Debra Jacobs
68,Lake Katrinaside,48.3979,9.9899,Reginald Walker
69,Ramirezborough,34.4702,-114.35,Trevor Shaffer
70,South Brianshire,41.0523,-75.3354,Haley Hall
71,Brucebury,40.0453,-86.0155,Maria Wood
72,New Davidview,45.036,-93.1984,Elizabeth Thomas
73,Gainestown,39.9745,-83.049,Brittany Gallagher
74,Aguilarfort,39.9719,-83.0027,Nathan Torres
75,Davisbury,36.0721,-115.075,Carlos Carlson
76,Kingbury,47.5203,-122.312,Charlotte Gamble
77,East Daniel,39.1136,-84.526,Joseph Salazar
78,Coxview,39.9767,-74.1829,Nathan Kirk
79,Gonzalezmouth,52.8046,-1.6281,Blake Casey
80,Brownhaven,10.9639,-74.7964,Donald Lambert
81,Jeffreyhaven,41.238,-77.0103,Hannah Benitez
82,Melissaburgh,44.1004,-70.2148,Samantha Price
83,South Kyleborough,48.3952,11.7288,Kelsey Daniel
84,North Kurt,46.8726,-114.02,Robert Arnold
85,Katiefurt,38.2546,-85.7401,Erin Rivas
86,Stuarttown,28.5383,-81.3792,Jason Peterson
87,West Ashleyville,37.7694,-122.51,Elizabeth Barrett
88,Lake Joshua,51.897,-8.4769,Ricky Harris
89,Thomasland,38.6112,-122.871,Brian Bass
90,Amber Freeman,38.8916,-121.293,Michael Carter
91,New Gregoryton,44.4295,-68.975,Laura Newman
92,Alexisside,55.997,-2.5098,Vanessa Murphy
93,Craig Ward,17.4977,-88.1867,Kristin Burns
94,Lee Aguilar,42.2843,-85.4538,Dr. Amber Bell
95,South Gregory,43.1947,-88.729,Keith Scott
96,Evanmouth,41.5059,-90.5171,Mrs. Rachel Spencer
97,Stephen Hart,52.4793,13.4293,Joseph Mccormick
98,Vickieville,52.5234,13.4114,Shirley Phillips
99,North Adam,40.622,-75.382,David Anderson
100,East Wyatthaven,40.1106,-88.2073,Dennis Gibson
101,Bennettberg,32.3293,-96.6253,Justin Perkins
102,North Markchester,51.5163,5.5977,Gregory Huerta
103,Millerstad,51.544,5.1285,Patricia Walker
104,New Kevin,51.1684,6.0515,Nicholas Clark
105,Thomasfurt,37.7756,-122.398,Jennifer Glenn
106,East Michellehaven,35.8104,-78.6179,Ashley Perez
107,Murrayton,45.0223,-84.6826,Brandon Smith
108,Lake Ronaldland,42.9634,-85.6681,Adrian Kelly
109,North Sherriborough,36.2426,-115.236,Madison Jones MD
110,Yoderstad,45.7736,-111.172,Joshua Clark
111,Powellfort,42.1511,-87.9144,James Knapp
112,Mrs. Melissa Davis MD,49.1049,-122.69,Brian Burgess
113,New Andrewfurt,49.1344,-123.065,Stephanie Jenkins
114,West Theodoreton,50.9847,-113.956,Aaron Peters
115,James Williamson,46.9223,-114.073,Deborah Bryant
116,Lake Davidside,47.6576,-122.313,Nicole Welch
117,Port Caitlinville,45.8981,-123.961,Kayla Martin
118,Julie White,50.0943,8.6913,Robert Rice
119,Veronica Hayes,46.0597,13.2269,Amy Kelley
120,New Tina,44.5153,7.8922,Amber Kelley
121,Gardnerport,44.6601,10.2814,Jamie Davis
122,Patriciaside,37.8634,-122.259,Kerry Edwards
123,Turnerbury,49.974,6.5227,Jason Daugherty
124,Cooperburgh,45.5235,-122.676,Linda Martinez
125,Nicholas Larsen,33.9132,-117.889,Maria Walker
126,Marymouth,41.8817,-87.6926,William Cooper
127,North Laura,37.23,-80.41,Lance Stephens
128,Dominiqueview,36.152,-86.7989,Tyler Baird
129,Lake John,38.8339,-104.821,Holly Velazquez
130,Cody Anderson PhD,45.5325,-122.686,Anthony Allen
131,Port Ryan,39.1716,-86.5104,Robert Crawford
132,East Timothy,43.0598,-89.3085,Maurice Harding
133,New Alex,41.5118,-90.5746,Maria White
134,South Krystal,35.0845,-106.651,Christopher Myers
135,New Patrickbury,40.7591,-73.0215,Curtis Rivera
136,Susan Flores,34.8531,-82.3983,Lauren Taylor
137,Lanebury,38.253,-85.654,Mark Monroe
138,South Cherylchester,44.1332,-73.0784,Lauren Nguyen
139,Chadborough,53.4807,-2.2344,Nicole Perez
140,Murphychester,35.1584,-114.573,James Valenzuela
141,Andrewsmouth,34.0532,-118.256,Tamara Brock
142,Andrea Coleman,42.4311,-83.4833,David Cole
143,Lake Michelle,13.7783,100.509,Victoria Jackson
144,Ashley Finley,35.3733,-119.019,Meghan Foster
145,Lindachester,35.0868,-89.8101,Anita Parks
146,Jefferystad,52.6739,14.9004,Gerald Conrad
147,North Rogerbury,42.3144,-71.1034,Brandon Williamson
148,Lake Donald,42.347,-71.0989,Cassandra Hood
149,Sheppardshire,42.8666,-109.866,Richard Sosa
150,Bauerfort,40.0267,-105.248,Kathleen Mcclain
151,Cody Blair Jr.,39.0821,-94.5965,Christine Jones
152,West Melissa,48.7475,-122.481,Brian Hicks
153,Justinfurt,45.4289,-73.6313,Warren Case
154,Marc White,49.7185,5.5571,Megan Jones
155,West Jason,50.4852,2.8306,Carol Nguyen
156,Port Denise,50.8431,3.6077,Jeffrey Ray
157,Samuelbury,50.1507,5.7442,Randall Ibarra
158,Penaburgh,50.5593,4.1365,Joseph Flores
159,East Natalie,50.3693,3.827,Connor Weeks
160,Thomasstad,50.5109,3.3883,Dana Brown
161,Garrisonfort,49.9842,4.3111,Debbie Hale
162,Port Nathanport,50.3705,3.7263,Becky Morris
163,Lauraland,50.7046,5.822,Christopher Hess
164,Melanie Nichols,50.7853,4.2437,Margaret Smith
165,North Cynthia,50.7975,2.5412,David Dixon
166,Jeffrey Lloyd,50.2248,4.4102,Kathleen Johnson
167,West Megan,50.6493,3.9242,Mr. Micheal Munoz
168,Vargasborough,-17.6797,-149.407,Emily Dunlap
169,Holttown,45.7075,5.9153,Jay Johnson
170,East Mary,47.2543,7.2026,Cynthia Davis
171,Samanthamouth,50.6204,3.7592,Kimberly Lambert
172,Manningtown,48.0028,6.6583,Linda Webb
173,Lancefurt,32.3906,-93.3739,Juan Hart
174,Port Matthew,50.3114,4.9435,Mrs. Yvonne Lewis DDS
175,Michelle Oneal,50.5779,3.5554,Joshua Richmond
176,Katherinechester,50.5718,3.6508,Jason Bowen
177,Lake Garyton,50.3089,3.6285,Kenneth Parker
178,East Jasonton,50.7428,3.6875,Pamela Martin
179,West Thomasmouth,50.286,5.5127,Heather Diaz
180,North Jeffreyport,50.6054,3.0775,David Stuart MD
181,David Perez,50.408,4.1659,Mr. Mark Price
182,North Thomas,50.2024,4.8914,Gordon Brown
183,Greeneburgh,50.2601,3.3125,Amanda Gamble
184,Dustin Gallegos,50.6746,4.1509,John Medina
185,Carla Robinson,45.4682,-73.5913,Shirley Shields
186,William Scott,42.6483,9.4529,Jessica Daniel
187,Gamblebury,50.8851,2.4329,Reginald Levine
188,Lake Ryan,50.3682,4.3266,Jamie Roach
189,Wrightborough,50.8416,4.3355,Raven Ford
190,Nicole Lozano,48.593,7.7149,Brett Russell
191,East Katie,47.6715,9.5888,Alexander Hunt
192,North Ronald,47.9706,11.7808,Haley Hardy
193,East Robert,53.0787,8.7901,Monique Sanford
194,Jessica Petersen,51.3055,8.1259,Betty Salazar
195,East John,49.8942,10.8855,Mindy Allen
196,Thompsonburgh,49.9477,11.5659,Ronald Bullock
197,New Seanmouth,48.2351,13.8292,Nicole Wright
198,Langstad,47.3625,15.0947,Christopher Johnston
199,Port Crystalland,52.3935,9.6814,Benjamin Dunlap
200,Brycestad,47.8243,10.0239,Laura Blair
201,Lozanotown,47.3642,8.5245,Zachary Elliott
202,New Samantha,47.7818,9.6215,James Mata
203,Warnerport,47.3301,9.4135,Laurie Smith
204,Port Ashley,50.8753,6.9944,Joshua Martinez
205,Gutierrezport,47.4301,9.3794,Michael Harvey
206,Port Ericmouth,51.2216,6.7853,Bradley Mclaughlin
207,South Mariahview,51.2847,7.2936,Julian Barnes
208,Wesleyport,49.8942,10.8855,Dennis Cox
209,West Amytown,51.9657,7.6214,Russell Ray
210,South Kevinbury,48.1306,15.1386,Donna Stanton
211,Santanachester,48.0778,9.3996,Abigail Parker
213,New Shanemouth,44.4105,-95.4107,Jamie Cantrell
214,Donald West,49.6993,9.2492,Leslie Little
215,Stewartfort,51.2404,6.7516,Andrea Young
216,Port Corytown,47.6651,9.175,Shannon Gomez
217,Jessechester,43.0646,141.347,Bridget Williams
218,Stephen Garcia,50.9394,6.9594,Dennis Gomez
219,South Scotttown,47.5585,8.9006,Melissa Pennington
220,Lake Rachael,47.0679,15.4417,Ricky Welch
221,Rodriguezshire,41.254,-95.9993,Vickie Kidd
222,South Jadeland,39.7236,-105.001,Mrs. Victoria Harrison MD
223,Patrickbury,39.7236,-105.001,Roberto Powell
224,Codyburgh,50.6718,6.122,Frank Allen
225,Port Joeport,41.347,-81.8226,Dr. Ian Boyd
226,Port Christinaville,37.3861,-122.084,Darren Herrera
227,South Sherry,57.683,-2.003,Robin Hawkins
228,Port Todd,39.3028,-76.6164,Andrea Wells
229,Lake Chelseachester,41.4548,-70.565,Kyle Shah
230,Chambersfort,50.8527,4.3311,Alexis Mitchell
231,Port Toni,48.9739,14.475,Sheena Richards
232,Amandahaven,51.3144,4.989,Jerry Morgan
233,New Williamton,42.8606,-90.1772,John White
234,Hortonborough,50.853,4.1649,Melanie Mcdonald
235,East Tiffany,42.6818,-74.9255,Cathy Aguirre
236,Danielshire,42.5847,-87.8212,Christopher Carter
237,Heidiburgh,37.5483,-121.989,Larry Torres
238,Deanna Matthews,42.4965,-90.6652,Jenna Curry
239,East Rubenside,45.5311,-122.685,Kristina Bradley
240,Lisa Calhoun,39.3628,-77.4265,Darrell Johnson
241,Michelleshire,38.8097,-104.826,Megan Knight
242,Port Caroline,39.8735,-86.1427,Laura Walker
243,South Nicoleburgh,40.7215,-73.9575,Ruben Stein
244,Port Sandra,55.6145,-3.4107,Manuel Holt
245,Port Robert,52.3666,4.9263,Christopher Johnson
246,Kaylabury,51.2974,4.6881,Richard Sanchez
247,Taylorfort,50.8961,2.7222,Jacob Arroyo
248,Shannonhaven,50.4431,4.4147,Alexander Harris
249,Richard Hicks,50.8853,4.7008,Kyle George
250,Meagantown,50.8628,3.2992,Katrina Martin
251,New Erin,50.7767,3.2785,Tina Berry
252,South Robin,50.7123,4.2197,Adam Keller
253,Port Justinberg,51.0138,4.2018,Julie Mora
254,South Timothy,51.2986,5.4896,Katie Hayes
255,Port Lucas,50.985,4.2226,Terry Hansen
256,Wareborough,51.0281,2.9038,Samantha Wise
257,Christopher Harmon,51.2094,3.2252,Denise Cabrera
258,Jasminebury,50.9098,4.2505,Nicole Bailey
259,Hallshire,51.544,5.1285,Veronica Gonzalez
260,Thomasport,51.0228,4.1572,Tammy Williams
261,East Charles,50.8105,3.1857,Cody Roach
262,Jeanhaven,51.1968,3.2527,Allison Taylor
263,Ninaton,50.971,4.191,Jo Brooks
264,Jamesview,51.2515,5.546,Elizabeth Walker DVM
265,Jenniferhaven,51.0442,4.3257,Douglas Evans
266,Ritterstad,50.9882,5.0554,William Reynolds
267,Kaiserchester,51.0325,4.473,Julie Pham
268,Michael Young,50.7763,5.166,Antonio Morrow
269,Andrew Hodge,50.8439,3.617,Nicholas Pitts
270,Daniel Good,50.818,4.2307,Mr. Benjamin Baker
271,Daniellechester,50.7586,4.3012,Christopher Collier
272,Harold Rivas,50.9462,3.1362,Heather Campbell
273,Santiagoborough,50.831,3.6759,Elizabeth Scott
274,Spencer Myers,51.1168,5.6464,Zachary Petersen
275,Rhodesview,50.8417,4.0213,James Russell
276,Jenniferberg,50.5018,4.1086,Eric Gentry
277,West Patrickfort,50.8425,2.6362,Cheryl King
278,Adamsmouth,51.4439,4.7386,Zachary Wright
279,West Lori,51.0923,3.01,Franklin Kim
280,Jerometown,51.1287,3.4785,Rebecca Anderson DVM
281,New Jasminburgh,50.8564,3.8845,Carlos Mcclain
282,South Emily,50.8612,2.6615,Diana Pena
283,East Thomas,50.7778,4.8877,Barbara Dickerson
284,Christopherborough,50.9201,3.2579,David Montes
285,West Colleen,51.1766,3.7462,Carolyn Jensen
286,Brandonside,50.8322,3.3884,Rachel Garza
287,North Kristinefurt,49.9622,20.6003,Cindy Perez
288,Lake Patrick,49.6622,19.1742,William Lane
289,Ericburgh,45.638,-89.4127,Derrick Ferguson
290,Mooreside,38.2554,-85.7441,Taylor Hernandez
291,New Susan,56.0746,12.1161,Nicole Herring
292,West Stanley,42.5083,-89.0318,Michelle Lee
293,Woodwardborough,40.1119,-76.5031,Arthur Reyes
294,Christine Brown,39.705,-104.936,Paul Villarreal
295,Alexisberg,36.7477,-119.772,Mr. Duane Walsh
296,Melissaview,41.2404,-77.0057,Bruce Gonzalez
297,Richardton,52.056,-2.7175,William Russell
298,Howardview,52.8065,-1.6225,Angela Charles
299,Carrchester,39.7245,-121.848,Brittany Carlson
300,South Kayla,36.7477,-119.772,Amy Moore
301,Kingchester,41.5713,-71.0571,Suzanne Nelson
302,East Robinshire,41.1607,-104.802,Randy Smith
303,Christopherville,42.6542,-73.7481,John Love
304,Nicholasfurt,42.1844,-122.663,Brittany Baker
305,Jacquelineport,55.9358,-3.2297,Aimee Davis
306,Farmermouth,35.932,-84.012,Justin Armstrong
307,Jacobstad,37.9735,-122.531,Christian Adams
308,Brandon Phillips,32.9147,-117.146,Aaron Carey
309,North Laura,42.3664,-71.0911,Derrick Jensen
310,Christopherfurt,43.4745,-79.6775,Steven Gomez
311,Johnsonview,41.4995,-81.6954,Jonathan Mccoy
312,New Colin,52.1344,-106.648,Clifford Keith
313,Sherihaven,42.6102,-70.6664,Nicole Jones
314,Port Edwardhaven,43.0949,-89.5163,Jocelyn Hester
315,Jonathanhaven,38.8999,-77.0272,Andrew Leon
316,Alexander Gutierrez,38.8411,-77.0869,Lisa Ramirez
317,Meganstad,41.126,-73.7896,Taylor Miller
318,Jessicaport,52.8042,-6.7295,Christine Huerta
319,Rebeccaville,52.7196,-6.846,Diana Moss
320,Dennisstad,55.6667,12.5393,Laura Ortiz
321,South Wendyfort,56.9002,12.5405,Sandra Perez
322,South Williammouth,-37.8231,144.967,Marc Mathis
323,Melissa Walker,42.2689,-89.0907,Vanessa Buchanan
324,North Anthony,36.6777,-121.656,Kevin Morton
325,Christineton,35.6231,-80.8011,Matthew Gomez
326,East Melindaton,35.9103,-79.0632,Lisa Hoffman
327,West Michaelborough,37.2748,-107.88,Carlos Cline
328,Jacobsfort,43.7548,-71.3967,Tina Werner
329,New William,43.649,-72.3193,Douglas Brown
330,Melissa Smith,41.9625,-91.6918,Robert Byrd
331,Port Sydneyshire,30.2672,-97.7431,Christopher Arias
332,West Cherylton,49.1873,-122.85,Linda Smith
333,East Jacquelineview,44.4419,-89.2797,Kendra Vasquez
334,Robert Nelson,14.6133,-90.5353,Christopher Bryant
335,New Kimmouth,25.7091,-100.314,Kayla Bryan
336,Schmidtberg,-32.8902,-68.844,Tyler Perez
337,Lake Joseshire,37.4316,-78.6569,Suzanne Malone
339,New Robertmouth,19.7219,-101.225,Kimberly Owen
340,Lake Codyfort,-25.1688,-50.1298,Jenna Adkins
341,Emilyland,-26.8914,-49.1223,Nicole Allen
342,East Olivia,37.1875,-3.6018,Todd Durham
343,Scottburgh,35.14,-106.6,David Valenzuela
344,North Laura,52.1321,-0.4815,Wesley Hinton
345,Lake Stephaniefurt,28.2126,-80.6734,Tyler Kidd
346,Parkburgh,40.7457,-74.0086,Donna Russell
347,Marieburgh,44.8342,-87.377,Edward Martinez
348,North Charlesmouth,39.8023,-105.084,Madison Hawkins
349,Pachecoville,36.1476,-115.298,Adrian Ross
350,Donnamouth,50.0355,4.3777,Patrick Gay
351,Juliatown,27.9587,-82.5093,Jason Reese
352,East Mike,39.7684,-86.158,Shannon Brown
353,South Zachary,43.8042,-91.2526,David Rangel
354,Alexandra Li,33.8575,-117.876,Daniel Davis
355,New Brittany,41.4995,-81.6994,Nicole Thomas
356,East Kaitlinburgh,40.6598,-74.283,Daniel Walker
357,Robinhaven,39.2308,-76.6751,Joseph Hamilton
358,Camachoburgh,50.9401,6.957,Tyler Reed
359,Burnettshire,35.2205,-97.4439,Andrea Walker
360,Parksland,30.396,-88.8853,Lisa Johnston
361,East Kathy,37.0013,-121.566,Tanner Thomas
362,Cherylstad,37.978,-122.031,Jaime Hicks
363,Connormouth,47.6745,-116.784,Alyssa Hughes
364,Pattersonborough,45.4582,-94.4291,Sharon Matthews
365,East Cathyshire,42.417,-88.074,Robert Rasmussen
366,Wilsonview,42.3584,-71.0598,Nicholas Cruz
367,Port Haley,43.3177,-73.64,Manuel Tanner
368,Melendezchester,-34.8727,138.573,Anthony Allen
369,Lake Deborah,42.5893,-74.9403,Joseph Hardy
370,Holly Schmidt,39.7599,-105.219,Derrick Benitez
371,East Ericmouth,37.7273,-89.2168,Mrs. Sophia Marquez
372,Natashaland,40.9222,-98.3581,Zachary Davis
373,North Angelashire,40.8942,-77.1971,Ryan Cruz
374,Port Adrianmouth,43.5323,-90.0099,Alexander Burgess
375,Smithfurt,32.6976,-117.173,Sarah Smith
376,Shannon Davidson PhD,41.537,-71.2796,Cindy Miller
377,North Justintown,53.8846,-1.2652,Tara Burch
378,Lesterfurt,41.5855,-93.621,Ryan Martin
379,East Sarahside,44.0886,-87.6576,Matthew Moore
380,New Jenniferfurt,40.2795,-75.2143,Nicole Obrien
381,Nolanland,40.4313,-104.688,Tina Anderson
382,Davidport,34.1696,-118.159,Todd Wilson
383,Powellport,40.8069,-96.6817,Cameron Solis
384,Lake Amandahaven,29.9558,-90.0641,Kristen Smith
385,Matthewburgh,38.8698,-106.987,Calvin Sanchez
386,Port Zacharyland,40.8726,-74.2964,Patricia Evans
387,Patrick Howard,41.4995,-81.6954,Arthur Jackson
388,Port Phillip,40.6936,-89.589,Christian Hernandez
389,East Crystalland,54.2912,-0.8406,Matthew Mckinney
390,Greeneberg,43.1147,-89.6531,Angie Davis
391,South Kristinastad,31.7291,-116.578,Sandra Lee
392,Heatherberg,41.8539,-88.2776,Lori Franklin
393,Jennifermouth,38.2309,-85.7055,Alexandria Fry
394,Natalieland,43.7076,-70.3149,Mary Lee
395,Wrightshire,50.6059,3.3884,Deborah Munoz
396,North Robertstad,53.9999,-1.501,Matthew Howard
397,Lake Josefurt,42.2667,-84.9641,Erik Banks
398,North Crystaltown,29.8994,-90.1004,Chelsea Walter
399,West Stevenshire,51.4421,4.9232,Michael Jones
400,Emilyside,53.0606,5.5342,Dana Boyle
401,Obrienfort,51.2026,3.2242,Zachary Cunningham
402,North Isabel,51.0811,3.3699,Susan Chaney
403,Jesusstad,51.1159,3.8158,Rita Gonzalez
404,Chandlerton,50.9229,2.7518,Erik Fritz
405,South Robert,39.5584,-79.3528,Eric Martinez
406,Leville,39.2904,-76.6122,Olivia Charles
407,Smithmouth,32.7153,-117.157,James Odonnell
408,Timothyfurt,43.0481,-88.3553,Thomas Crawford
409,West Kenneth,38.2362,-122.64,Lauren Mitchell
410,Gallagherfort,44.3478,-87.8273,Sarah Palmer
411,Port Susantown,39.7553,-104.997,Grace Johns
412,Valerieborough,44.0474,-121.323,Kimberly Chandler
413,Chandlerbury,33.9858,-96.6515,Hannah Park
414,East Danielhaven,39.1361,-84.5031,Claire Reid
415,East Pamela,34.7473,-92.2839,Michelle Myers
416,Port Jessicahaven,47.9485,-122.305,James Murphy
417,East Heidiport,41.4995,-81.6954,Christopher Thompson
418,Tracytown,46.7713,-123.007,Danielle Morales
419,Tinaburgh,51.5331,6.4213,Kurt Bradford
420,Cynthiatown,45.5228,-73.5928,Eric Cook
421,Jeffreyhaven,39.6282,-106.059,Mark Johnson
422,Darlene Barnes,38.5405,-90.4607,Ashley Armstrong
423,Stricklandton,49.2766,-123.115,Lisa Holt
424,Port Anthonyborough,29.9606,-90.0871,Andrea Lucas
425,Angela Owens,39.7541,-105,Samantha Luna
426,Ianmouth,39.9478,-75.2229,Nicole Fitzpatrick
427,Michaelbury,49.2698,-123.132,Charlene Martin
428,New Jeffrey,38.7683,-75.3107,Susan Hale
429,Lake Brianna,51.5298,7.4692,Sarah Harper
430,Rodriguezview,39.8019,-105.514,Robert Palmer
431,Kristy Hill,45.71,-121.515,Alicia Davis
432,Nunezmouth,42.493,-82.9753,Mary Wiggins
433,Samuel Bridges,37.7176,-122.182,Kelly Meyer
434,New John,47.4921,19.1422,William Robertson
435,West Valerie,35.0845,-106.651,Daniel Leon
436,Port William,53.3441,-6.2675,John Patterson
437,Cameronton,42.5006,-90.6646,Jeremy Turner
438,North Cassandraport,35.6003,-77.5971,Raymond Collins
439,New Blakefort,39.2807,-76.5944,Cindy Mitchell
440,New Deborahmouth,28.014,-82.7876,William Ramirez
441,West Michael,41.7075,-86.895,Ann Hudson
442,Christopher Mejia,51.2206,4.3997,Julie Jones
443,Schmidtfort,-45.0331,168.661,Bradley Austin
444,Lake Teresa,47.9454,-122.304,Shawn Aguirre
445,Port Connie,40.4553,-79.9043,Natalie Flores
446,Clarkburgh,38.7814,-76.2222,Joseph Martin
447,New Tiffany,38.5725,-109.551,Lauren Brown
448,South Michael,49.9211,9.0715,Hannah Thomas
449,New Cynthia,40.5793,-124.153,Jennifer Rodriguez
450,East Jasmine,55.7558,37.6176,Jessica Chapman
451,Pennybury,44.4489,-88.0604,Craig Taylor
452,Crystalchester,51.8162,9.8643,Thomas Sullivan
453,Nelsonhaven,37.978,-122.034,Kyle Mcbride
454,Serranoton,37.1553,-121.676,Carrie Padilla
455,Christineton,52.6643,0.1595,John Stephenson
456,East Jessicafort,40.8911,-77.477,Michael Pittman
457,East Carlaview,38.4093,-121.363,Jason Moss
458,Ayersland,47.8099,-122.302,Martin Mendez
459,West Krista,39.2684,-76.7994,Alexis Long
460,Poncebury,47.5604,-122.387,Lisa Nguyen
461,East Samuelmouth,42.9324,-72.2867,Laurie Carter
462,Ortegahaven,47.614,-122.316,Corey Kim
463,Port Jamesport,47.6688,-122.334,Mary Kelley
464,Powellmouth,-45.872,170.518,Jason Hall
465,Angelfurt,37.8313,-122.285,Shannon Jimenez
466,New Patrick,42.0981,-88.2783,Anthony Williams
467,Cunninghamshire,40.8155,-96.7105,Pam Willis
468,Benjaminstad,43.5325,-90.0026,Jerry Kline
469,Lake Christopher,47.256,-122.473,Amanda Smith
470,Adamton,36.6802,-121.804,Christine Hanson
471,Lawrencetown,-36.9489,174.821,Jessica Gallagher
472,New Colleentown,42.1112,-80.113,Vanessa Aguilar
473,North Eileen,43.1147,-89.6531,Amy Davis
474,Pearsonhaven,40.3707,-105.526,Samantha Cook
475,East Michael,41.4559,-122.846,Bridget Middleton
476,Kimberlyshire,47.569,11.0942,Michelle Howard
477,West Eric,43.1045,-75.2452,Jenna Lane
479,Thomas Farmer,47.6701,-122.118,David Dean
480,Tiffanyport,43.0844,-89.4761,Angela Patton
481,Lisa Lynch,37.387,-121.993,Felicia Allen
482,Brianbury,37.8855,-122.033,Debra Murillo
483,West Maria,54.9548,-1.6576,Scott Lyons
485,Jacobport,51.6987,-4.1456,Patricia Campbell
486,Josephside,39.322,-120.163,Travis Taylor
487,New Tonytown,41.0117,-95.2272,Ashley Ramirez
488,West Stacy,44.0812,-103.227,Jennifer Boone
489,Paulside,37.3775,-122.03,Andrew Richards
490,Jessicaburgh,35.5953,-120.694,Thomas Marquez
491,Port Brianmouth,34.2257,-77.9447,Mathew Brewer
492,Lake Jenniferstad,47.0437,-122.897,Gary Little
493,West Mary,46.7926,-92.0909,Harold Gray
494,Carterborough,41.6611,-91.5302,Denise Williamson
495,North Karen,35.1973,-111.648,Michael Rodriguez
496,New Matthewtown,38.95,-92.3323,Kelly Mora
497,Leshire,44.9084,-93.1538,Anthony Stewart
498,South Annetteview,42.2031,-87.9302,Joseph Williams
499,North Christine,54.779,9.4355,Brad Adams
500,South Emilyland,28.0707,-80.6012,Brian Robinson
501,Marshallbury,41.5433,-87.6789,Alexis Harris
502,New Rachelbury,43.161,-77.6109,Jessica Henderson
503,Port Bryan,48.2992,-122.652,Heather Smith
504,New Lauraport,42.9561,-78.8966,Mr. Johnny Alvarado III
505,Clarkfort,39.7582,-104.99,Susan Wilson
506,East Michael,39.9121,-74.9701,Steven Decker
507,North Bob,50.6818,4.9547,Chelsea Mclaughlin DVM
508,David Burke,36.0973,-80.2509,Shaun Sanchez
509,New Georgefurt,38.9773,-76.4948,Katie Wilson
510,Jennifershire,40.5832,-105.042,Veronica Smith
511,Barryfurt,38.8048,-77.0469,Robert Brown
512,New Tiffany,42.9585,-85.6735,Carrie Barnes
513,Howardtown,41.8089,-88.0112,Lisa Stuart
514,South Jasonmouth,33.4194,-111.916,Andrea Wilcox
515,West Lisaside,44.0342,-88.5608,Carolyn Davis
516,East Carl,44.2678,-88.4731,Dana Walker
517,Patriciabury,41.499,-72.9007,Scott Taylor
518,West Nicolebury,39.3628,-77.4265,Ellen Wheeler
519,Angelica Baker,38.9718,-95.2357,Susan Greer
520,East Marvinville,51.8325,-2.5116,Teresa Shepherd
521,East Tyler,53.5755,7.9016,Laura Castro
522,West Charlenefurt,41.5202,-90.5725,Tammy Estrada
523,Rodriguezton,41.5403,-82.7355,Charles Evans
524,Lauren Rodriguez,49.0156,12.0913,Kimberly Juarez
525,South Leslieberg,45.7103,-121.515,Grace Gutierrez
526,Bernardfort,51.4877,-0.2498,Ryan Diaz
527,Smithburgh,43.8014,-91.2396,Joshua Cummings
528,South Thomasshire,40.7465,-74.2594,Heather Maddox
529,Williamsberg,51.3397,12.3714,Michele Howard
530,Johnberg,47.6064,9.6061,Sharon Lowe
531,Lake Tammy,47.5171,9.43,Jason Crawford
532,Lindsey Conner,51.2249,6.7757,Kari Anderson
533,Port Jamesmouth,53.1691,0.3169,Ian Perry
534,Melissaburgh,50.7989,-1.0912,Stephanie Lopez
535,South Daniel,52.3544,9.7532,Gerald Hodge
536,West Paul,46.518,-95.3761,Alex Burke
537,South Isaiahhaven,61.2179,-149.896,Joseph Wright
538,North Daniel,41.8775,-88.067,Jason Rubio
539,North Franklinshire,39.5476,-107.323,Barbara Williams
540,Port Dale,-27.8539,153.359,Michael Hernandez
541,East Kevin,43.4676,-80.5231,Jorge Simmons
542,Michelleport,39.7546,-105.224,Eric Lewis
543,Debbiebury,37.7749,-122.419,Dr. Michael Taylor
544,East Christina,37.8716,-122.273,Isaiah Anderson
545,North Markville,41.9273,-87.6807,Larry Perez
546,South Heidiberg,45.2104,-123.189,Peter Campos
547,Zamorastad,41.9137,-87.6543,Desiree Perez
548,Josephmouth,41.8871,-87.6721,Keith Burke
549,North Heather,26.0745,-80.1806,Rebecca Silva
550,East Davidmouth,37.3526,-121.893,Jasmine Tucker
551,Port Bradley,39.6441,-106.596,Kenneth Davis
552,Bakerchester,41.4295,-97.3623,Richard Holland
553,Chadborough,42.1779,-88.3377,Benjamin Patrick
554,Collinsbury,40.2518,-105.82,Jesse Lambert
555,South Elizabethville,43.4988,-110.877,Julie Branch
556,Port Rachelbury,43.5984,-111.108,Tom Guzman
557,Lake Rhonda,41.2672,-96.0714,Gail Acosta
558,Port Catherinehaven,45.5498,-94.2067,Scott Cardenas
559,Elizabeth Cook,49.8945,-119.488,Todd Shaw
560,Martinton,49.2705,-123.136,Dana Davis
561,Landrymouth,42.6793,-89.0498,Mary Cervantes
562,Julie Edwards,39.5349,-119.754,Amy Williams
563,East Tammy,61.5816,-149.439,Jason Hardy
564,Masonbury,43.0745,-89.3802,Tamara Hughes
565,New Michelle,43.0177,-89.4232,Diane White
566,New Taylor,39.7539,-104.989,Lindsey Black
567,Mariabury,41.4844,-81.7042,William Schneider
568,Karen Nguyen,39.6042,-105.948,Norman Park
569,Simonborough,44.9467,-93.097,Frank Hawkins
570,Mendozastad,44.5189,-88.0196,Sara Griffith
571,Mary Sullivan,33.136,-117.225,Kayla Sanchez
572,North Joseph,44.9398,-93.1568,Sean Smith
573,West Shaunmouth,44.0344,-73.1735,Mitchell Jones
574,Vaughanmouth,52.241,0.7157,Russell Hicks
575,Benjamin Norris,35.7721,-78.6386,Steven Caldwell
576,Lake Hayley,38.2382,-122.04,Sarah Boyer
577,New Brittany,42.2805,-83.749,Daniel May
578,Mary Wheeler,52.2081,6.8163,Kelly Johnson
579,Lake James,43.0081,-89.7383,Gerald Smith
580,Port Melissa,19.427,-99.1276,Jasmin Brown
581,Robertstad,50.8109,5.9213,Alicia Mann
582,Port Thomas,52.3795,4.6377,Jean Miller
583,West Zachary,48.1391,11.5802,Brandi Smith
584,Port Catherinemouth,45.4901,-122.643,Holly Walker
585,Nathanport,47.6592,-122.366,Kevin Sanchez
586,West Maria,37.4903,-122.435,Eric Larsen
587,Phillipsport,35.6083,-77.3732,Cynthia Alvarez
588,Marissa Compton,54.1744,-1.4844,Jeffrey Vincent
589,New Sean,50.9889,-1.4989,Eric Moody
590,West Gabriella,51.1913,6.4421,Patrick Marshall Jr.
591,North Jenniferchester,60.2945,5.2592,Bryan Smith
592,South Katie,50.729,4.2971,Victoria Smith
593,Port Rhonda,20.7592,-156.457,Stephen Wallace
594,North Kathyborough,43.3871,-87.8795,Natasha Robertson
595,Christianfurt,47.2436,-122.437,Amanda Horton
596,New Paulville,42.3465,-71.0338,Tony Morgan
597,William Campbell,43.513,-72.4015,Michael Valencia MD
598,Matthewmouth,40.4962,-74.4441,Diane Johns
599,Jenkinsmouth,50.8742,0.0167,Brittany White
600,Samuelside,56.1531,-3.8006,Samuel Williamson
601,Lake Daniel,51.8439,10.7533,Laura Duncan
602,Port Kevinside,51.2261,6.7745,Molly Whitaker
603,Alexander Cole,43.2165,-123.342,Gina Faulkner
604,Lake Tonya,40.5853,-105.084,Ashley Hamilton
605,Brandon Robinson,40.7323,-73.9874,Erin Watts
606,Port Christinetown,39.7392,-104.985,Robert Guzman
607,Nelsonville,39.9653,-74.3118,Carla Lloyd
609,Michael Hall,47.5077,8.7302,Michael Turner
610,South Lisaburgh,49.892,10.8853,Roberto Spencer
611,Nelsonhaven,45.7458,-87.056,Melissa Singh
612,South Joyceton,44.9518,-89.6657,Gary Daniels
613,South Sandra,44.9491,-93.2885,Matthew Knight
614,Lake Anthony,32.3096,-106.793,Jesus Freeman
615,East Kristen,43.1646,-77.6155,Tonya Hall
616,Simpsonton,41.0016,-74.3403,Justin Norris
617,Kingfort,35.5716,-82.4991,Todd Chan
618,Sarahview,47.5132,10.279,Jennifer Smith
619,Williamsland,37.5665,126.978,Shelly Cunningham
620,Jordanville,50.3949,9.7724,James Reid
621,Lake Marioside,49.0125,8.4264,Rebecca Raymond
622,Scott Shaffer,47.6942,13.0784,Phillip Avery
623,New Katiemouth,47.8691,12.6505,Michael Vargas
624,North Keith,32.9618,-96.8292,Regina Mcconnell
625,James Gonzalez,32.803,-96.7699,Gloria Moon
626,South Daniel,49.1672,12.6399,Mrs. Natalie Duncan DVM
627,Lake Victoria,53.5621,9.9451,Amy Foley
628,Khanport,38.9911,-77.0237,Jose Martin
629,Amber Archer,51.9966,-1.4922,Gabrielle Howard
630,Angelaville,40.6215,-111.866,Randy Gibson
631,Whitney Davis,41.0247,-81.4676,Michael Robinson
632,New Amandaville,38.5551,-121.43,Dawn Cohen
633,Williamsshire,39.7187,-104.95,Mark Mcfarland
634,South John,43.7594,-87.7228,Julie Horton
635,Coxfurt,37.677,-121.898,Reginald Garcia
636,Patricia Thompson,45.4969,-122.635,Kathy Hernandez
637,Hillborough,37.6345,-120.982,Natalie Riley
638,West Carl,42.2626,-71.8023,Mr. Andrew Levy
639,Lake Michael,51.2615,9.4494,Michelle Hughes
640,Reedfort,39.6403,-106.374,Jon Johnson
641,West Christinaville,39.2651,-84.3799,William Lucero
642,John Flynn,-33.2175,151.426,Erika Duncan
643,South Emilyside,51.2026,3.2242,Brian Jones
644,Wagnerhaven,40.87,-124.087,Stacy Peck
645,Shanefurt,51.1007,3.6934,April Johnson
646,Lake Michelleton,43.4666,-112.034,Monica Underwood DDS
647,South Carlatown,40.4787,-88.9946,Leslie Vang
648,West Jonathan,50.8865,4.7069,Dr. Jacob Brown
649,Chelsea Holland,39.9526,-75.1594,Philip Carter
650,Donaldburgh,30.2131,-97.7358,Russell Garrett
651,Mayschester,35.6675,-117.874,Allison Wong
652,New Anthonyton,13.6998,-89.1832,Julie Wright
653,South Megan,56.4174,-3.4779,Jenna Fowler
654,Cindy Shaffer,53.4863,-6.168,Diane Fitzpatrick
655,Nataliemouth,40.461,-79.9653,Jared Allen
656,Lake Michelleshire,39.6834,-75.7467,Michelle Martin
657,Ethanland,39.745,-75.5561,Gabriella Porter
658,East Brenda,37.986,-122.584,Gerald Peterson
659,Wangton,34.396,-119.521,Karen Stevens
660,Joshuaburgh,56.4907,-4.2026,Dawn Ramirez
661,Maciaschester,47.53,-122.037,Andrea Chavez
662,Christopherborough,42.4145,-76.5315,Melissa Collins
663,West Samuelfurt,38.7563,-120.679,Shari Griffith
664,Craigtown,37.5441,-121.988,Roy Clark
665,Kaiserstad,44.9449,-91.3968,Natalie Murphy
666,Ortizberg,41.2328,-96.0825,Matthew Munoz
667,East Justin,45.0039,-93.2502,Kara Hoffman
668,Hodgesstad,39.3722,-104.856,Luke Lowe
669,East Alicialand,46.5015,-87.679,Rebecca Booker
670,Lake Meredith,54.6649,-3.3634,Jonathan Trevino
671,East Kathrynbury,53.5757,7.9003,Diane Williams
672,Royshire,37.5665,126.978,Denise Adams
673,New Victoria,40.5549,-74.2771,Robert Chan
674,Whitefurt,41.254,-95.9993,Craig Cummings
675,West Natalieville,40.1707,-76.3838,Ricky Brewer
676,Lake Deborah,42.3037,-71.3966,Steven Marshall
677,Debratown,42.3724,-71.1193,Stacy Choi
678,Lake Claudia,39.7458,-75.5467,Amanda Snyder
679,Meganbury,50.7298,4.508,Kimberly Butler
680,Jennifer Padilla,42.3375,-83.8895,Megan Hall
681,Michelletown,39.9529,-74.201,Patricia Macdonald
682,Perezside,43.0519,-89.4737,Danielle Adams
683,Lovefort,33.9533,-117.396,Jennifer English
684,Port Ronald,53.5412,-2.1734,Michael Collins
685,Port Shaneville,49.6283,11.5498,Kathleen Patrick
686,South Kathryn,49.9043,10.8524,Mark Ford
687,Port Richardville,42.2949,-85.5788,Heidi Marquez
688,Miguelburgh,32.8969,-117.201,Samantha Clark
689,Patricia Stewart,45.4956,15.5331,Sarah Lewis
690,Laurenton,49.8904,10.9056,Jacqueline Klein
691,Lake Robinport,44.5236,-89.5746,Jason Roberts
692,Lake Marktown,38.4405,-122.714,Chad Myers
693,Tammy Harrison MD,38.0317,-84.4951,John Adams
694,Kylefort,-1.2833,36.8167,Jacob Le
695,Catherine Schroeder,46.5958,-112.027,Stephanie Wilson
696,North Jared,51.0638,-0.327,Christy Gonzalez
697,Lake Phyllis,50.9193,3.9666,Theodore Perkins
698,Connor Richardson,52.091,14.6509,Kathleen Myers
699,South Katelynchester,49.0144,12.075,Bryan Torres
700,New Debrahaven,49.8891,10.887,Ryan Colon
701,Port Aaron,51.5314,6.7418,Shawn Moss
702,Bankshaven,48.1826,11.2522,Jonathan Ayala
703,Lake Karenborough,50.3216,7.5862,Nathan Vargas
704,Timothytown,47.9262,9.4204,Benjamin Robles
705,North Charlestown,19.642,-155.996,Christy Garza
707,South Marissafurt,41.0323,-74.6407,Tami Goodman MD
708,Watsonberg,44.5617,-72.5984,Lisa Guzman
709,West Coryberg,42.5278,-83.0472,Michael Walton
710,New Nicoleberg,50.106,11.4442,Patrick Martinez
711,Shannon Butler,50.1077,11.453,Alejandro Houston
712,South Rachel,32.8409,-117.274,Vincent Warner
713,Kevinbury,33.8575,-117.876,Joseph Porter
714,Andersonshire,44.6598,-63.5997,James Higgins
715,Suzanneborough,42.9778,-81.2467,Jody Stewart
716,Josephport,48.3917,-122.495,Kristen Sullivan
717,Ashleyburgh,40.4194,-86.89,Stacey Santos
718,North Albert,38.2724,-122.662,Angela Walker
719,Andrewchester,43.1706,-89.9324,Yvonne Mcclain
720,Briannahaven,44.2829,-73.9813,Robert West
721,Petersontown,46.7611,-92.1319,Amy James
722,Lake Christinefort,43.0547,-87.9053,Taylor Murphy
723,Tylertown,40.0438,-76.2984,Casey White
724,Teresa Cox,54.8229,-1.7457,Kelly Allen
725,Jay Tucker,48.014,-115.011,Ronald Blake
726,Wilsontown,40.3212,-79.3795,Patrick Richmond
727,North Kevinfurt,48.3003,-116.538,Kaitlyn Diaz
728,Lake Chaseport,30.3764,-89.4497,John Green
729,West Michaelville,45.5181,-73.5642,Mary Smith
730,Kerryport,33.4577,-117.589,Mark Barker
731,New Todd,40.1587,-105.113,Elizabeth Smith
732,North Traceyfurt,40.3256,-75.9283,Tyler Richardson
733,Colestad,44.5534,-88.0977,Nicholas Key
734,West Diane,33.4484,-112.074,Amy Rivas
735,New Michaelborough,46.5977,-112.037,Luke Luna
736,North Andreabury,33.7187,-78.8831,Roy Bryant
737,Kimberlytown,50.5208,8.8166,Brandy Phillips
738,Dylan Sparks,50.9649,3.422,Tracy Floyd
739,Jamieside,45.0565,-92.8222,Grant Becker
740,Bradleyberg,48.4358,-123.396,Gary Collier
741,South Virginiafort,45.7786,-111.179,Cody Cooper
742,East Kenneth,-39.6275,176.854,Abigail Miranda
743,Myersberg,38.7548,-9.1883,Todd Washington
744,Chad Miller,41.2557,-75.8583,Scott Floyd
745,East Juan,-33.8687,151.217,Scott Zuniga
746,Tara Pace,39.1456,-84.4741,Tamara Vargas
747,Lake Ronaldfort,39.1836,-96.5717,Cynthia Moore
748,South Justinton,-32.0597,115.745,Christina Brooks
749,North John,30.2541,-97.7055,Meghan Moore
750,Rachel Johnson,45.9172,-89.2443,Kevin Leon
751,Lake Michelleland,49.6206,14.3837,Dawn Flores
752,East Drew,44.8516,-90.3165,Barbara King
753,Port Graceville,43.5882,-72.6563,Scott Krueger
754,Dorseyburgh,40.7843,-74.78,Dr. Michael Castillo
755,Kirkside,40.8032,-124.165,Hayden Beard
756,South Chelseaburgh,43.7379,-79.5714,Jeffrey Mendoza
757,New Seth,47.3642,8.5245,Taylor Khan
758,Aimeestad,56.1073,-3.7528,Lisa Gross
759,Lake Karenchester,41.0677,-85.1524,Nicholas Rodriguez
760,Littlebury,41.3145,-81.8357,Michael Black
761,Billport,40.879,-123.993,Anna Hayden
762,South Annetteton,40.8786,-123.992,Theresa Smith
763,Montgomerychester,44.4284,-73.2131,Joseph Werner
764,South Jennifer,37.7702,-122.445,Benjamin Mcfarland
765,North Ginamouth,45.5001,-122.431,Vicki Robinson
766,West Steven,37.543,-77.4691,Paul Morris
767,Lake Anthony,33.8835,-117.565,Dustin James
768,Lake Jennaville,32.803,-96.7699,Alexis Johnson
769,Coltonbury,36.1755,-115.145,Eric Lopez
770,Steve Lopez MD,49.8928,10.9131,Kathleen Ross
771,Kaiserview,-33.8867,151.174,Katherine White
772,Wileyview,43.2167,-87.924,Denise Floyd
773,Lucasville,37.6484,-118.983,Danielle Padilla
774,Whitney Moore,40.0236,-75.2202,Maria Foster
775,Richardtown,33.8844,-118.411,Victor Diaz
776,Mark Johnson,35.0928,-106.647,James Gonzales Jr.
777,Lake Nicholaschester,30.3617,-81.6966,Amanda Williams
778,New Brandychester,37.9479,-122.511,Claudia Lewis
779,Jasonborough,49.2055,-122.978,Gregory Baker
780,North Timothyburgh,47.6637,-122.377,Alexandra Morales
781,Melanieborough,46.5431,-87.3929,Jason Wells
782,Jordanborough,36.152,-95.9647,Ashley Wagner
783,Benjaminmouth,51.3175,9.4793,Jasmine Barajas
784,Deanna Ryan,40.4234,-78.4339,Gabriel Espinoza
785,Rubenburgh,35.0707,-78.9545,Barbara Estrada
786,Randyberg,-32.0232,115.754,Kelly Price
787,Cardenasmouth,20.9721,-156.677,Debra Maldonado
788,Sampsonton,41.6432,-83.5384,Linda Davis
789,New Gregory,40.1989,-98.0673,Sherri Hayes
790,East Alexisview,39.0534,-94.5919,William Bridges
791,Brianland,30.4181,-87.2024,John Neal
792,Marshallbury,39.8658,-75.5442,Emily Smith DVM
793,Lake Alexisbury,47.8774,-122.211,Jacob Lawrence
794,North Courtney,51.7975,-0.0806,Christine Cantrell
795,Riceburgh,51.4899,0.038,Carrie Tyler
796,New Kayla,47.6308,9.8889,Monica Booker
797,Michaelburgh,19.706,-155.069,Keith Luna
798,Tamaraland,38.9734,-123.116,Ronald Harmon
799,North Julieberg,43.0831,-73.7846,Mathew Dorsey
800,Sheltonborough,39.1326,-123.201,Jeremy Bautista
801,West Emilychester,42.6728,-70.844,Timothy Morris
802,North Amanda,41.975,-87.674,David Day
803,North John,42.2249,-121.782,Lucas Hall MD
804,West Gary,42.6616,-84.1946,Jose Gibson
805,East Coreytown,42.2872,-87.9538,Courtney Reid
806,West Mason,43.0389,-87.9065,Kevin Jacobs
807,Steven Carroll,51.1028,4.7269,Lisa Schaefer
808,South Richard,43.0508,-76.1617,Dr. Karen Sellers MD
809,Port Paulside,61.1473,-149.844,Sally Dean
810,Port Susanton,35.3,-106.551,Jean Knight
811,Raymondview,46.0697,-118.336,Melissa Vaughn
812,Deannaside,39.612,-105.019,Kathryn Fernandez
813,Jessicatown,43.0445,-87.9626,Michelle Johnson
814,East Whitneychester,42.0855,-88.1411,Connor Gonzalez
815,Lowefurt,41.7972,-91.8652,Randall Ryan
816,New Roger,42.9945,-71.4674,Mark Miller
817,Jacksonfort,43.0334,-87.9093,Anthony Richardson
818,Cunninghamburgh,42.6001,-89.6422,Morgan Mitchell MD
819,East Lindabury,44.9732,-93.2479,Julian Roman
820,West Amandaville,44.9442,-93.0861,Abigail Campbell
821,West Isabel,45.8722,-89.7097,Sandra Ramirez
822,Jessicahaven,41.6931,-86.1818,Patricia Gutierrez
823,Lindseytown,49.1323,-122.343,Susan Rosales
824,Malik Ryan,40.687,-73.708,Kristy Hahn
825,Weberville,38.5657,-109.55,Dr. Joy Christian
826,South Scottville,35.2156,-111.59,Mrs. Lisa Williams
827,Millerfort,47.4123,9.7443,Jorge Mullen
828,East Blakeville,43.6706,-79.3824,Susan Crane
829,East Gary,45.7822,-108.506,Diana Diaz
830,East Timothy,36.1286,-115.171,Alicia Carrillo
831,Robert Espinoza,-42.4505,171.207,Rebecca White
832,Martinview,32.081,-81.0915,Jasmine Berry
833,Orrchester,38.498,-122.78,Sonya Petty
834,Rhodesland,53.7864,-2.2694,Jeremy Malone
835,Jennifershire,61.1902,-149.869,Brian Herman
836,North Laura,45.2567,-66.096,Rebecca Meyer
837,Preston Summers,45.2578,-66.0984,Susan Hernandez
838,Fordfort,43.5907,-89.7939,William Hayes
839,Lake Mary,55.0167,-1.4925,Julie Moore
840,Danielhaven,51.6701,-1.285,Caleb West
841,Port Cassandrachester,40.019,-105.275,John Gilbert
842,Jeffrey Greene,38.0941,-122.557,Robert Nelson
843,Morrisbury,38.1074,-122.57,Michael Peterson
844,Torresborough,34.4686,-114.341,Meghan Montgomery
845,Jeremyland,40.5843,-98.3912,John Wright
846,Kevin Rose,-40.7658,172.705,Johnathan Osborne
847,Lake Wendychester,16.7779,96.1679,Miss Brandy Wheeler
848,Benjamin Bowen,40.3978,-105.075,Veronica Ruiz
849,Rodriguezborough,-22.5589,17.0825,David Bryant
850,Port Wesley,41.1339,-96.0307,Aaron Orozco
851,Youngbury,49.4884,-117.29,Brandon Anderson
852,Cookmouth,52.081,0.6559,David Graham
853,West Markview,38.3281,-85.8171,Mark Rojas
854,New Williamhaven,40.5929,-105.07,Renee Mcconnell
855,West Rebecca,42.3587,-71.0574,Marie Wright
856,Russellfurt,42.8171,-89.6306,Edward Christian
857,East Kenneth,42.79,-86.1041,Robert Salazar
858,Mcgrathfort,33.9089,-84.3056,Catherine Morales
859,Sharpmouth,40.1857,-75.4516,Sarah Nelson
860,Kyle Vargas,43.0893,-79.11,Samuel Fleming
861,West Donaldstad,45.9222,-88.2518,John Stevens
862,Melissachester,44.0569,-123.11,Mark Barnett
863,Sherri Burnett,39.9502,-75.1666,Spencer Barber
864,West Kellyshire,45.5235,-122.676,Natalie Owens
865,Matthew Harrison,58.5366,15.0373,Brandon Huffman
866,East William,39.4466,-123.806,Jenna Jones
867,North Emily,41.0638,-80.0556,Nicole Willis
868,Lake Jenniferhaven,47.6815,-122.209,Stephen Erickson
869,Lake Kyle,44.7776,-91.4433,Sara Reyes
870,Stacyfort,38.8058,-90.7532,Beverly Rivera
871,Heatherfort,44.9458,-93.167,Bailey Carter
872,West Jenniferborough,42.0884,-87.9806,Tony Holder
873,Robertsborough,45.5539,-94.1703,Alexander Hart
874,Kimton,34.8661,-111.796,Daniel Bolton
875,South Maryport,39.615,-86.0901,Caitlin Vincent
876,Andreaville,52.5758,-0.248,Susan Stanton
877,Jordanbury,40.015,-105.271,Sara Miranda
878,Patelfort,40.015,-105.271,Donald Miller
879,South Stephanie,43.1117,-88.4993,Donald Tran
880,Jennyborough,40.5894,-105.063,Brandon Khan
881,Lake Jillmouth,33.2029,-117.255,Mr. Anthony Morgan MD
882,East Anna,41.1828,-80.7654,Steve Moreno
883,Matthew Matthews,50.2613,-119.277,Jose Watts
884,Schwartzborough,30.2767,-97.7463,Kimberly Francis
885,Woodville,39.154,-75.4884,Juan May
886,North Lauren,42.1682,-85.8497,Wendy Cox
887,East Sandra,42.0248,-93.6147,Stephanie Beck
888,Brendachester,42.2936,-85.5778,Christina Hill
889,East Angelafurt,39.0472,-84.5599,Zachary Barnett
890,Lake Melissa,32.7153,-117.157,Larry Francis
891,Leetown,42.1865,-88.1835,Amy Jones
892,Port Sydney,43.0389,-87.9065,James Rose MD
893,New Tinaberg,48.7596,-122.488,Lauren Johnson
894,Guzmanstad,44.6365,-123.106,Edward Blake
895,Reevestown,44.5613,-123.261,Alexander Parker
896,New Kathleen,40.3532,-74.0747,Amanda Smith
897,Wilkinsonshire,59.0697,-3.3135,David Jimenez
898,Richardsburgh,28.5265,-81.3827,Karen Smith
899,Millsmouth,44.4284,-73.2131,Robert Moon
900,North Theresatown,40.2246,-105.268,Mariah Francis
901,Erinview,55.7558,37.6176,Travis Dean
902,Candacestad,48.2133,16.3229,Katie Kline
903,West Ashley,44.0197,-73.1693,Thomas Adams
904,Erikfurt,40.8098,-77.9101,Ryan Clark
905,Jason Brown,60.381,25.1102,Brittany Huffman
906,Michaelstad,41.1475,-85.1168,Richard Hopkins
907,Port Anthonyburgh,29.43,-98.49,Ashley Robinson
908,Gainesburgh,32.7978,-117.24,Briana Collier
909,Calebton,37.8016,-122.274,John Garcia
910,North Nicholasport,47.5143,-122.353,Robert Smith
911,Garciaville,50.9953,4.2835,Tracie Rowe
912,Craig Smith,32.8017,-79.9455,Austin Williams
913,Amyville,43.1467,-75.1779,George Blackwell
914,Darrenberg,42.2012,-72.6104,Keith Wood
915,East Timothyville,40.496,-111.42,Linda Williams
916,Brittanyshire,48.1391,11.5802,Karen Hamilton
917,Tinashire,43.8344,-91.2362,Amanda Davila
918,Johnmouth,45.2152,-123.97,Tyler Griffin
919,Jessicaberg,40.4569,-79.9915,Michael Evans
920,Davidchester,42.8368,-71.6626,Jean Conner
921,Jonesburgh,40.4569,-79.9915,Joel Vance
922,Johnsonview,29.5761,-98.4772,Jordan Olson
923,South Diamond,34.9251,-95.7253,Andre Cook
924,Timothyview,33.9176,-117.26,Paul Robertson
925,Autumn Butler,39.9827,-75.1275,Barbara Burke
926,Oliviabury,-20.2738,57.4971,Dawn Hernandez DDS
927,Timothy Stout,41.9104,-87.6761,Teresa Harrell
928,Port Deannamouth,47.6081,-122.34,Christopher Benton
929,North Jennifer,35.1315,-79.4295,Laura Butler
930,Tanner Marshall,33.7268,-111.853,Mary Griffith
931,Holly Jackson,39.7369,-104.991,Austin Cooper
932,Holmesland,42.0038,21.4522,John Salazar
933,Alexandra King,50.2094,15.8326,Christopher Moon
934,New Jessicachester,50.0355,15.762,Mario Davis
935,Dr. Robert Welch,50.0878,14.4205,Todd Oliver DVM
936,Andrewshaven,49.1911,16.5918,Denise Mitchell
937,Juliabury,47.8809,18.1972,Michael Blankenship
938,South Heather,49.9225,14.6361,Charles Braun DDS
939,Julia Garza,50.0685,14.4067,Sherri Bond
940,Hendersonton,59.939,30.3158,Karen Miller
941,South Sean,41.9455,-88.4507,Leslie Rivera
942,Lake Brandonstad,32.9908,-117.272,Christine Stephens
943,West Steven,37.2283,-77.3903,Diane Sanchez
944,Joshua Sullivan,40.6954,-99.0812,James Graham
945,Antoniochester,37.6645,-121.873,Zachary Miller
946,New Katieview,49.7466,13.3861,Brenda Huang
947,Martinezborough,35.1814,136.906,Jeffrey Mitchell
948,Port Patricia,38.8814,-94.8191,Cody Farley
949,Mark Rivas,33.1406,-117.15,Jamie Carter
950,Andrewfurt,43.3872,-87.8756,Sharon Jackson
951,Ryan Lang,40.3341,-75.012,Darrell Nixon
952,Lake Bradleychester,45.5415,-122.713,Heather Jordan
953,Nicolasbury,43.0781,-70.7575,Joseph Price
954,Bowmanside,42.0347,-88.2819,Stephen Dorsey
955,Lukeburgh,34.542,-112.47,Zachary Mann
956,North Markmouth,60.4877,9.1885,Wanda Baker
957,North Kendra,49.6747,8.925,Christine Adams
958,Alexandrashire,51.1833,6.4993,Christopher Wade
959,Brendafurt,48.3153,11.8911,Regina Boyer
960,Scottton,51.2292,6.7925,Brooke Berry
961,Camerontown,50.9465,6.9563,Mr. Victor Long
962,Pottsmouth,48.9175,11.8735,Dr. Christina Scott MD
963,North Thomas,49.8851,10.8823,David Mcpherson
964,South Matthew,39.6282,-106.047,Timothy Simpson
965,Jonathanburgh,43.6615,-70.2553,Veronica Gibson
966,South Jamesborough,40.1688,-105.102,Lauren Moore
967,Port Seanland,43.6011,-89.7937,Amanda Harmon
968,Port Lauren,47.5917,-122.335,Kelly Hall
969,Taylor Jackson,37.8806,-122.3,Patrick Jordan
970,Port Codyshire,47.5924,-122.334,Andrew Rasmussen
971,New Devon,36.0663,120.383,Wendy Conner
972,Lake Marcmouth,33.4905,-79.116,William Adkins
973,Port Dylan,49.2673,-123.103,Gordon Moss
974,Kevinchester,45.4856,-122.754,Heather Schultz
975,Kevinside,41.5841,-93.6296,Peter Smith
976,Port Jamesfort,51.1148,13.915,Laura Nguyen
977,Willischester,32.7366,-97.3274,Hector Williams
978,New Caitlinberg,45.0851,-87.6544,Laura Stout
979,Wallaceton,61.2181,-149.9,Jessica West
980,Bakerstad,41.1151,-74.147,David Rasmussen
981,Amy Mitchell,42.832,-88.714,Lisa Davis
982,Lake Kevinfort,51.3723,-2.8773,Casey Luna
983,East Karen,30.113,-98.4156,Sean Alexander
984,West Adam,33.6864,-117.66,Anna Price
985,Port Andrewland,33.037,-117.292,Daniel Jackson
986,Alexandriaborough,45.1913,-109.247,Madison Lynch
987,South Sandraview,36.0613,-79.5695,Tracy Rivera
988,Evanton,40.3044,-79.5471,Michael Lewis
989,Janetland,40.0187,-105.279,David Martinez
990,Lake Matthewborough,47.6062,-122.332,Katie Pitts
991,Larsonton,43.0117,-88.2315,Teresa Wright
992,New Carla,48.0708,11.5311,Sandra Tapia
993,Ellishaven,41.9234,-87.6982,Laura Mendez DDS
994,Ricardoville,37.5356,-77.4338,Tina Melton
995,Ortizfort,51.5462,-1.1355,Victoria Stout
996,Thomaston,33.4148,-111.909,Brittney Smith
997,Solisbury,40.3688,-74.9477,Anthony Edwards Jr.
998,New Kenneth,41.85,-87.6501,Ryan Juarez
999,Port Samanthastad,40.638,-111.69,Robert Monroe
1000,East Debbieview,40.4465,-79.7642,William Gonzalez
1001,Ginafurt,44.5693,-72.6034,John Arnold
1002,North Thomas,41.8915,-87.6284,Colleen Stewart
1003,Heidi Delgado,39.7472,-104.995,Tracey Stewart
1004,North Katelynland,43.0399,-87.9117,Phillip Holt
1005,Burnschester,44.9765,-93.2747,Claudia Dalton
1006,West James,37.2886,-121.933,Benjamin Perez
1007,Pamela Oliver,39.5678,-104.874,Chad Perez
1008,Rhondaburgh,41.4623,-81.856,Stephanie Farrell
1009,Austinside,39.4091,-104.87,Jeremy Jones
1010,Williamville,42.7875,-86.1089,Matthew Scott
1011,New Allisonhaven,44.6202,-124.052,Melissa Smith
1012,Christophershire,51.4421,4.9232,Crystal Nguyen
1013,Powellstad,37.2869,-121.946,Jose Moyer
1014,Lake Blake,45.5118,-122.659,Scott Hill
1015,Castilloton,37.9871,-122.589,Brian Bishop
1016,Lake Edwardport,43.3178,-88.379,Steven Valdez
1017,Barberfort,38.647,-90.225,Jennifer Jackson
1018,New Johnshire,32.789,-96.7989,Kathleen Perez
1019,North Darren,44.0291,-88.1629,Pamela Keith
1020,Bennettport,39.939,-77.6566,Susan Bryant
1021,Melissa Mcpherson,38.5731,-121.481,Kevin Jones
1022,Lake Brandiview,47.6855,9.208,Jessica Pope
1023,Lake Tracyberg,44.8902,-92.6378,Christopher Sanchez
1024,South Roberthaven,49.1482,-122.862,James Ingram
1025,Dudleyborough,38.4418,-122.712,Corey Richardson
1026,Christopherburgh,41.3879,2.1699,Natalie Gallagher
1027,Ashley Richardson,51.4736,-3.179,Gabriel Moran
1028,Lake Johnstad,12.9683,77.657,John Matthews
1029,East Elizabethburgh,38.6191,-121.4,Annette White
1030,Sarahland,29.8123,-95.4675,Erik Parker
1031,Port Richard,38.633,-90.21,Brenda Garcia
1032,Zachary Gardner,28.1646,-82.7717,James Fox
1033,Adamsville,59.3014,24.6679,Sarah Beasley
1034,Jamesburgh,29.4241,-98.4936,Carmen Wiggins
1035,North Michael,52.7069,-2.787,Tina Taylor
1036,South Gavinfort,40.7626,-111.895,John Rios
1037,Gomezhaven,21.3069,-157.858,Jacqueline Daniels
1038,Sheltonport,53.8834,-1.2625,Sarah Simpson
1039,North Johnstad,32.7922,-117.099,William Clark
1040,Courtneystad,33.1345,-117.191,Evan Jones
1041,Kimstad,14.5833,120.967,Andrew Chapman
1042,North Jeffreyton,44.2929,-90.8511,James Diaz
1043,Thomastown,39.7557,-104.993,Darryl Evans
1044,Lozanohaven,44.8007,-106.956,Ryan Williams
1045,Lake Meganfort,34.4166,-119.696,Bethany Allen
1046,Port Laurenchester,36.9741,-122.031,Tara Moore
1047,Johnsonshire,35.5966,-106.052,Leah Chase
1048,Lake Christina,38.4405,-122.714,Tyler Hopkins
1049,Terrybury,52.5435,-2.1156,Sarah Powell
1050,West Baileyshire,45.4207,-122.671,Aaron Odonnell
1052,North Jenniferview,-34.1855,150.607,Joseph Li
1053,Burkeshire,50.0224,10.83,Whitney Rogers
1054,East Linda,47.9904,13.9238,Anthony Pruitt
1055,Hillstad,47.4097,9.7514,Mary Johnson
1056,North Toddborough,32.803,-96.7699,Chelsea Jones
1057,East Ryanberg,37.9669,-121.783,Renee Atkinson
